[
  {
    "id": "ecr001",
    "name": "Eagles Canyon Raceway CW",
    "country": "United States",
    "state": "Texas",
    "latitude": 33.383333,
    "longitude": -97.466667,
    "length": 3.7,
    "startFinishLatitude": 33.383056,
    "startFinishLongitude": -97.466944,
    "type": "roadCourse",
    "configuration": "Full Course CW"
  },
  {
    "id": "ecr002",
    "name": "Eagles Canyon Raceway CCW",
    "country": "United States",
    "state": "Texas",
    "latitude": 33.383333,
    "longitude": -97.466667,
    "length": 3.7,
    "startFinishLatitude": 33.383056,
    "startFinishLongitude": -97.466944,
    "type": "roadCourse",
    "configuration": "Full Course CCW"
  },
  {
    "id": "msrC001",
    "name": "Motorsports Ranch Cresson CW",
    "country": "United States",
    "state": "Texas",
    "latitude": 32.523918592349446,
    "longitude": -97.61654635394375,
    "length": 2.7,
    "startFinishLatitude": 32.52312556429143,
    "startFinishLongitude": -97.61526513114374,
    "type": "roadCourse",
    "configuration": "1.7 mile CW"
  },
  {
    "id": "msrC002",
    "name": "Motorsports Ranch Cresson CCW",
    "country": "United States",
    "state": "Texas",
    "latitude": 32.523918592349446,
    "longitude": -97.61654635394375,
    "length": 2.7,
    "startFinishLatitude": 32.52312556429143,
    "startFinishLongitude": -97.61526513114374,
    "type": "roadCourse",
    "configuration": "1.7 mile CCW"
  },
  {
    "id": "tms001",
    "name": "Texas Motor Speedway",
    "country": "United States",
    "state": "Texas",
    "latitude": 33.037293678010826,
    "longitude": -97.28424140791351,
    "length": 2.7,
    "startFinishLatitude": 33.037293678010826,
    "startFinishLongitude": -97.28424140791351,
    "type": "oval",
    "configuration": "Oval"
  },
  {
    "id": "cota001",
    "name": "Circuit of the Americas",
    "country": "United States",
    "state": "Texas",
    "latitude": 30.1328,
    "longitude": -97.6411,
    "length": 5.513,
    "startFinishLatitude": 30.1332,
    "startFinishLongitude": -97.6409,
    "type": "roadCourse",
    "configuration": "Grand Prix Circuit"
  },
  {
    "id": "hhr001",
    "name": "Harris Hill Raceway CCW",
    "country": "United States",
    "state": "Texas",
    "latitude": 29.918905631288126,
    "longitude": -97.87321517981748,
    "length": 2.929006,
    "startFinishLatitude": 29.918905631288126,
    "startFinishLongitude": -97.87321517981748,
    "type": "roadCourse",
    "configuration": "Harris Hill Raceway CCW"
  },
  {
    "id": "hhr002",
    "name": "Harris Hill Raceway CW",
    "country": "United States",
    "state": "Texas",
    "latitude": 29.918905631288126,
    "longitude": -97.87321517981748,
    "length": 2.929006,
    "startFinishLatitude": 29.918905631288126,
    "startFinishLongitude": -97.87321517981748,
    "type": "roadCourse",
    "configuration": "Harris Hill Raceway CW"
  },
  {
    "id": "msrH001",
    "name": "Motorsports Ranch Houston CW",
    "country": "United States",
    "state": "Texas",
    "latitude": 29.279015997954833,
    "longitude": -95.42238727331993,
    "length": 3.830239,
    "startFinishLatitude": 29.279015997954833,
    "startFinishLongitude": -95.42238727331993,
    "type": "roadCourse",
    "configuration": "Motorsports Ranch Houston CW"
  },
  {
    "id": "msrH002",
    "name": "Motorsports Ranch Houston CCW",
    "country": "United States",
    "state": "Texas",
    "latitude": 29.279015997954833,
    "longitude": -95.42238727331993,
    "length": 3.830239,
    "startFinishLatitude": 29.279015997954833,
    "startFinishLongitude": -95.42238727331993,
    "type": "roadCourse",
    "configuration": "Motorsports Ranch Houston CCW"
  },
  {
    "id": "atl001",
    "name": "Atlanta Motorsports Park",
    "country": "United States",
    "state": "Georgia",
    "latitude": 34.4324797399731,
    "longitude": -84.1756853700859,
    "length": 3.2186,
    "startFinishLatitude": 34.4324797399731,
    "startFinishLongitude": -84.1756853700859,
    "type": "roadCourse",
    "configuration": "Atlanta Motorsports Park CCW"
  },
  {
    "id": "nola001",
    "name": "NOLA Motorsports Park",
    "country": "United States",
    "state": "Louisiana",
    "latitude": 29.88542540520978,
    "longitude": -90.19919556820763,
    "length": 4.423,
    "startFinishLatitude": 29.88542540520978,
    "startFinishLongitude": -90.19919556820763,
    "type": "roadCourse",
    "configuration": "NOLA Motorsports park CW"
  },
  {
    "id": "brb001",
    "name": "Barber Motorsports Park",
    "country": "United States",
    "state": "Alabama",
    "latitude": 33.53268115819057,
    "longitude": -86.61962497507324,
    "length": 3.83,
    "startFinishLatitude": 33.53268115819057,
    "startFinishLongitude": -86.61962497507324,
    "type": "roadCourse",
    "configuration": "Barber Motorsports Park CW"
  },
  {
    "id": "cms001",
    "name": "Charlotte Motor Speedway",
    "country": "United States",
    "state": "North Carolina",
    "latitude": 35.352272728615766,
    "longitude": -80.6855874889916,
    "length": 2.41402,
    "startFinishLatitude": 35.352272728615766,
    "startFinishLongitude": -80.6855874889916,
    "type": "oval",
    "configuration": "Charlotte Motor Speedway"
  },
  {
    "id": "rms001",
    "name": "Rockingham Speedway",
    "country": "United States",
    "state": "North Carolina",
    "latitude": 34.975804425043215,
    "longitude": -79.61089367281988,
    "length": 2.575,
    "startFinishLatitude": 34.975804425043215,
    "startFinishLongitude": -79.61089367281988,
    "type": "oval",
    "configuration": "Rockingham Speedway"
  },
  {
    "id": "qms001",
    "name": "Qlispé Raceway Park",
    "country": "United States",
    "state": "Washington",
    "latitude": 47.6621139628838,
    "longitude": -117.57202292536684,
    "length": 4.02336,
    "startFinishLatitude": 47.6621139628838,
    "startFinishLongitude": -117.57202292536684,
    "type": "roadCourse",
    "configuration": "Qlispé Raceway Park"
  },
  {
    "id": "lms001",
    "name": "Laguna Seca",
    "country": "United States",
    "state": "California",
    "latitude": 36.5843,
    "longitude": -121.7532,
    "length": 3.602,
    "startFinishLatitude": 36.5861,
    "startFinishLongitude": -121.7530,
    "type": "roadCourse",
    "configuration": "Full Circuit"
  },
  {
    "id": "sbr001",
    "name": "Sebring International Raceway",
    "country": "United States",
    "state": "Florida",
    "latitude": 27.4547,
    "longitude": -81.3483,
    "length": 6.02,
    "startFinishLatitude": 27.4516,
    "startFinishLongitude": -81.3441,
    "type": "roadCourse",
    "configuration": "Full Circuit"
  },
  {
    "id": "wgn001",
    "name": "Watkins Glen International",
    "country": "United States",
    "state": "New York",
    "latitude": 42.3369,
    "longitude": -76.9272,
    "length": 5.43,
    "startFinishLatitude": 42.3361,
    "startFinishLongitude": -76.9270,
    "type": "roadCourse",
    "configuration": "Grand Prix Circuit"
  },
  {
    "id": "day001",
    "name": "Daytona International Speedway",
    "country": "United States",
    "state": "Florida",
    "latitude": 29.1851,
    "longitude": -81.0701,
    "length": 4.023,
    "startFinishLatitude": 29.1874,
    "startFinishLongitude": -81.0635,
    "type": "oval",
    "configuration": "Oval"
  },
  {
    "id": "ims001",
    "name": "Indianapolis Motor Speedway",
    "country": "United States",
    "state": "Indiana",
    "latitude": 39.7950,
    "longitude": -86.2356,
    "length": 4.023,
    "startFinishLatitude": 39.7953,
    "startFinishLongitude": -86.2344,
    "type": "oval",
    "configuration": "Oval"
  },
  {
    "id": "spa001",
    "name": "Circuit de Spa-Francorchamps",
    "country": "Belgium",
    "state": "Wallonia",
    "latitude": 50.4372,
    "longitude": 5.9714,
    "length": 7.004,
    "startFinishLatitude": 50.4458,
    "startFinishLongitude": 5.9675,
    "type": "roadCourse",
    "configuration": "Grand Prix Circuit"
  },
  {
    "id": "mon001",
    "name": "Circuit de Monaco",
    "country": "Monaco",
    "state": "Monaco",
    "latitude": 43.7347,
    "longitude": 7.4206,
    "length": 3.337,
    "startFinishLatitude": 43.7347,
    "startFinishLongitude": 7.4208,
    "type": "roadCourse",
    "configuration": "Grand Prix Circuit"
  },
  {
    "id": "nur001",
    "name": "Nürburgring Nordschleife",
    "country": "Germany",
    "state": "Rhineland-Palatinate",
    "latitude": 50.3356,
    "longitude": 6.9475,
    "length": 20.832,
    "startFinishLatitude": 50.3356,
    "startFinishLongitude": 6.9475,
    "type": "roadCourse",
    "configuration": "Nordschleife"
  },
  {
    "id": "suz001",
    "name": "Suzuka Circuit",
    "country": "Japan",
    "state": "Mie Prefecture",
    "latitude": 34.8431,
    "longitude": 136.5410,
    "length": 5.807,
    "startFinishLatitude": 34.8453,
    "startFinishLongitude": 136.5406,
    "type": "roadCourse",
    "configuration": "Grand Prix Circuit"
  },
  {
    "id": "bat001",
    "name": "Bathurst Mount Panorama Circuit",
    "country": "Australia",
    "state": "New South Wales",
    "latitude": -33.4486,
    "longitude": 149.5550,
    "length": 6.213,
    "startFinishLatitude": -33.4486,
    "startFinishLongitude": 149.5550,
    "type": "roadCourse",
    "configuration": "Mount Panorama Circuit"
  },
  {
    "id": "int001",
    "name": "Autodromo Nazionale Monza",
    "country": "Italy",
    "state": "Lombardy",
    "latitude": 45.6156,
    "longitude": 9.2811,
    "length": 5.793,
    "startFinishLatitude": 45.6156,
    "startFinishLongitude": 9.2811,
    "type": "roadCourse",
    "configuration": "Grand Prix Circuit"
  },
  {
     "id": "sil001",
     "name": "Silverstone Circuit",
     "country": "United Kingdom",
     "state": "Northamptonshire",
     "latitude": 52.0733,
     "longitude": -1.0146,
     "length": 5.891,
     "startFinishLatitude": 52.06933873170125,
     "startFinishLongitude": -1.0221412505476049,
     "type": "roadCourse",
     "configuration": "Grand Prix Circuit"
  },
    {
      "id": "bra001",
      "name": "Autódromo José Carlos Pace (Interlagos)",
      "country": "Brazil",
      "state": "São Paulo",
      "latitude": -23.7036,
      "longitude": -46.6997,
      "length": 4.309,
      "startFinishLatitude": -23.7036,
      "startFinishLongitude": -46.6997,
      "type": "roadCourse",
      "configuration": "Grand Prix Circuit"
    },
    {
      "id": "red001",
      "name": "Red Bull Ring",
      "country": "Austria",
      "state": "Styria",
      "latitude": 47.2197,
      "longitude": 14.7647,
      "length": 4.318,
      "startFinishLatitude": 47.2197,
      "startFinishLongitude": 14.7647,
      "type": "roadCourse",
      "configuration": "Grand Prix Circuit"
    },
    {
      "id": "cat001",
      "name": "Circuit de Barcelona-Catalunya",
      "country": "Spain",
      "state": "Catalonia",
      "latitude": 41.5695,
      "longitude": 2.2585,
      "length": 4.655,
      "startFinishLatitude": 41.5695,
      "startFinishLongitude": 2.2585,
      "type": "roadCourse",
      "configuration": "Grand Prix Circuit"
    },
    {
      "id": "yam001",
      "name": "Yas Marina Circuit",
      "country": "United Arab Emirates",
      "state": "Abu Dhabi",
      "latitude": 24.4672,
      "longitude": 54.6031,
      "length": 5.554,
      "startFinishLatitude": 24.4672,
      "startFinishLongitude": 54.6031,
      "type": "roadCourse",
      "configuration": "Grand Prix Circuit"
    },
    {
      "id": "hun001",
      "name": "Hungaroring",
      "country": "Hungary",
      "state": "Pest County",
      "latitude": 47.5830,
      "longitude": 19.2486,
      "length": 4.381,
      "startFinishLatitude": 47.5830,
      "startFinishLongitude": 19.2486,
      "type": "roadCourse",
      "configuration": "Grand Prix Circuit"
    },
    {
      "id": "znd001",
      "name": "Circuit Zandvoort",
      "country": "Netherlands",
      "state": "North Holland",
      "latitude": 52.3880,
      "longitude": 4.5409,
      "length": 4.259,
      "startFinishLatitude": 52.3880,
      "startFinishLongitude": 4.5409,
      "type": "roadCourse",
      "configuration": "Grand Prix Circuit"
    },
    {
      "id": "bak001",
      "name": "Baku City Circuit",
      "country": "Azerbaijan",
      "state": "Baku",
      "latitude": 40.3725,
      "longitude": 49.8533,
      "length": 6.003,
      "startFinishLatitude": 40.3725,
      "startFinishLongitude": 49.8533,
      "type": "roadCourse",
      "configuration": "City Circuit"
    },
    {
      "id": "jed001",
      "name": "Jeddah Corniche Circuit",
      "country": "Saudi Arabia",
      "state": "Makkah Province",
      "latitude": 21.6319,
      "longitude": 39.1044,
      "length": 6.174,
      "startFinishLatitude": 21.6319,
      "startFinishLongitude": 39.1044,
      "type": "roadCourse",
      "configuration": "Street Circuit"
    },
    {
      "id": "mia001",
      "name": "Miami International Autodrome",
      "country": "United States",
      "state": "Florida",
      "latitude": 25.9581,
      "longitude": -80.2389,
      "length": 5.412,
      "startFinishLatitude": 25.9581,
      "startFinishLongitude": -80.2389,
      "type": "roadCourse",
      "configuration": "Grand Prix Circuit"
    },
    {
      "id": "alb001",
      "name": "Albert Park Circuit",
      "country": "Australia",
      "state": "Victoria",
      "latitude": -37.8497,
      "longitude": 144.9680,
      "length": 5.303,
      "startFinishLatitude": -37.8497,
      "startFinishLongitude": 144.9680,
      "type": "roadCourse",
      "configuration": "Grand Prix Circuit"
    },
    {
      "id": "imola001",
      "name": "Autodromo Enzo e Dino Ferrari (Imola)",
      "country": "Italy",
      "state": "Emilia-Romagna",
      "latitude": 44.3439,
      "longitude": 11.7167,
      "length": 4.909,
      "startFinishLatitude": 44.3439,
      "startFinishLongitude": 11.7167,
      "type": "roadCourse",
      "configuration": "Grand Prix Circuit"
    },
    {
      "id": "bud001",
      "name": "Buddh International Circuit",
      "country": "India",
      "state": "Uttar Pradesh",
      "latitude": 28.3487,
      "longitude": 77.5331,
      "length": 5.14,
      "startFinishLatitude": 28.3487,
      "startFinishLongitude": 77.5331,
      "type": "roadCourse",
      "configuration": "Grand Prix Circuit"
    },
    {
      "id": "sep001",
      "name": "Sepang International Circuit",
      "country": "Malaysia",
      "state": "Selangor",
      "latitude": 2.7601,
      "longitude": 101.7378,
      "length": 5.543,
      "startFinishLatitude": 2.7601,
      "startFinishLongitude": 101.7378,
      "type": "roadCourse",
      "configuration": "Grand Prix Circuit"
    },
    {
      "id": "fuji001",
      "name": "Fuji Speedway",
      "country": "Japan",
      "state": "Shizuoka Prefecture",
      "latitude": 35.3717,
      "longitude": 138.9267,
      "length": 4.563,
      "startFinishLatitude": 35.3717,
      "startFinishLongitude": 138.9267,
      "type": "roadCourse",
      "configuration": "Grand Prix Circuit"
    },
    {
      "id": "mug001",
      "name": "Mugello Circuit",
      "country": "Italy",
      "state": "Tuscany",
      "latitude": 43.9975,
      "longitude": 11.3719,
      "length": 5.245,
      "startFinishLatitude": 43.9975,
      "startFinishLongitude": 11.3719,
      "type": "roadCourse",
      "configuration": "Grand Prix Circuit"
    },
    {
      "id": "port001",
      "name": "Autódromo Internacional do Algarve (Portimão)",
      "country": "Portugal",
      "state": "Algarve",
      "latitude": 37.2320,
      "longitude": -8.6267,
      "length": 4.653,
      "startFinishLatitude": 37.2320,
      "startFinishLongitude": -8.6267,
      "type": "roadCourse",
      "configuration": "Grand Prix Circuit"
    },
    {
      "id": "tha001",
      "name": "Chang International Circuit",
      "country": "Thailand",
      "state": "Buriram Province",
      "latitude": 14.9769,
      "longitude": 103.0825,
      "length": 4.554,
      "startFinishLatitude": 14.9769,
      "startFinishLongitude": 103.0825,
      "type": "roadCourse",
      "configuration": "Grand Prix Circuit"
    },
    {
        "id": "arg001",
        "name": "Autódromo Termas de Río Hondo",
        "country": "Argentina",
        "state": "Santiago del Estero Province",
        "latitude": -27.5144,
        "longitude": -64.9200,
        "length": 4.805,
        "startFinishLatitude": -27.5144,
        "startFinishLongitude": -64.9200,
        "type": "roadCourse",
        "configuration": "Grand Prix Circuit"
      },
      {
       "id": "mot001",
       "name": "Motorland Aragón",
       "country": "Spain",
       "state": "Aragon",
       "latitude": 41.0789,
       "longitude": -0.2019,
       "length": 5.344,
       "startFinishLatitude": 41.0789,
       "startFinishLongitude": -0.2019,
       "type": "roadCourse",
       "configuration": "Grand Prix Circuit"
      },
      {
        "id": "mis001",
        "name": "Misano World Circuit Marco Simoncelli",
        "country": "Italy",
        "state": "Emilia-Romagna",
        "latitude": 43.9614,
        "longitude": 12.6840,
        "length": 4.226,
        "startFinishLatitude": 43.9614,
        "startFinishLongitude": 12.6840,
        "type": "roadCourse",
        "configuration": "Grand Prix Circuit"
      },
      {
        "id": "phi001",
        "name": "Phillip Island Circuit",
        "country": "Australia",
        "state": "Victoria",
        "latitude": -38.5033,
        "longitude": 145.2344,
        "length": 4.445,
        "startFinishLatitude": -38.5033,
        "startFinishLongitude": 145.2344,
        "type": "roadCourse",
        "configuration": "Grand Prix Circuit"
      },
      {
        "id": "ass001",
        "name": "Circuito de Jerez - Ángel Nieto",
        "country": "Spain",
        "state": "Andalusia",
        "latitude": 36.7083,
        "longitude": -6.0347,
        "length": 4.428,
        "startFinishLatitude": 36.7083,
        "startFinishLongitude": -6.0347,
        "type": "roadCourse",
        "configuration": "Grand Prix Circuit"
      },
      {
        "id": "lem001",
        "name": "Circuit de la Sarthe (Le Mans)",
        "country": "France",
        "state": "Pays de la Loire",
        "latitude": 47.9506,
        "longitude": 0.2240,
        "length": 13.626,
        "startFinishLatitude": 47.9506,
        "startFinishLongitude": 0.2240,
        "type": "roadCourse",
        "configuration": "24 Hours Circuit"
      },
      {
        "id": "don001",
        "name": "Circuit de Nevers Magny-Cours",
        "country": "France",
        "state": "Burgundy",
        "latitude": 46.8642,
        "longitude": 3.1630,
        "length": 4.411,
        "startFinishLatitude": 46.8642,
        "startFinishLongitude": 3.1630,
        "type": "roadCourse",
        "configuration": "Grand Prix Circuit"
      },
      {
        "id": "bra002",
        "name": "Autódromo Internacional Nelson Piquet (Jacarepaguá)",
        "country": "Brazil",
        "state": "Rio de Janeiro",
        "latitude": -22.9789,
        "longitude": -43.3949,
        "length": 5.031,
        "startFinishLatitude": -22.9789,
        "startFinishLongitude": -43.3949,
        "type": "roadCourse",
        "configuration": "Grand Prix Circuit"
      },
      {
        "id": "est001",
        "name": "EuroSpeedway Lausitz",
        "country": "Germany",
        "state": "Brandenburg",
        "latitude": 51.5372,
        "longitude": 13.9253,
        "length": 4.345,
        "startFinishLatitude": 51.5372,
        "startFinishLongitude": 13.9253,
        "type": "roadCourse",
        "configuration": "Grand Prix Circuit"
      },
      {
        "id": "zol001",
        "name": "TT Circuit Assen",
        "country": "Netherlands",
        "state": "Drenthe",
        "latitude": 52.9592,
        "longitude": 6.5228,
        "length": 4.555,
        "startFinishLatitude": 52.9592,
        "startFinishLongitude": 6.5228,
        "type": "roadCourse",
        "configuration": "Grand Prix Circuit"
      },
      {
        "id": "bra003",
        "name": "Autódromo Internacional Ayrton Senna (Goiânia)",
        "country": "Brazil",
        "state": "Goiás",
        "latitude": -16.7286,
        "longitude": -49.1025,
        "length": 3.835,
        "startFinishLatitude": -16.7286,
        "startFinishLongitude": -49.1025,
        "type": "roadCourse",
        "configuration": "Grand Prix Circuit"
      },
      {
        "id": "pau001",
        "name": "Circuito de Rua de Pau",
        "country": "France",
        "state": "Nouvelle-Aquitaine",
        "latitude": 43.2967,
        "longitude": -0.3514,
        "length": 2.76,
        "startFinishLatitude": 43.2967,
        "startFinishLongitude": -0.3514,
        "type": "roadCourse",
        "configuration": "Street Circuit"
      },
      {
        "id": "mac001",
        "name": "Guia Circuit",
        "country": "Macau",
        "state": "Macau",
        "latitude": 22.1927,
        "longitude": 113.5497,
        "length": 6.12,
        "startFinishLatitude": 22.1927,
        "startFinishLongitude": 113.5497,
        "type": "roadCourse",
        "configuration": "Street Circuit"
      },
      {
        "id": "nur002",
        "name": "Nürburgring GP-Strecke",
        "country": "Germany",
        "state": "Rhineland-Palatinate",
        "latitude": 50.3356,
        "longitude": 6.9475,
        "length": 5.148,
        "startFinishLatitude": 50.3356,
        "startFinishLongitude": 6.9475,
        "type": "roadCourse",
        "configuration": "Grand Prix Circuit"
      },
      {
        "id": "mos001",
        "name": "Moscow Raceway",
        "country": "Russia",
        "state": "Moscow Oblast",
        "latitude": 55.7190,
        "longitude": 36.0706,
        "length": 3.931,
        "startFinishLatitude": 55.7190,
        "startFinishLongitude": 36.0706,
        "type": "roadCourse",
        "configuration": "Grand Prix Circuit"
      },
      {
        "id": "val001",
        "name": "Circuit Ricardo Tormo",
        "country": "Spain",
        "state": "Valencia",
        "latitude": 39.4889,
        "longitude": -0.6314,
        "length": 4.005,
        "startFinishLatitude": 39.4889,
        "startFinishLongitude": -0.6314,
        "type": "roadCourse",
        "configuration": "Grand Prix Circuit"
      },
      {
        "id": "kor001",
        "name": "Korea International Circuit",
        "country": "South Korea",
        "state": "South Jeolla",
        "latitude": 34.7472,
        "longitude": 126.4164,
        "length": 5.615,
        "startFinishLatitude": 34.7472,
        "startFinishLongitude": 126.4164,
        "type": "roadCourse",
        "configuration": "Grand Prix Circuit"
      },
      {
        "id": "tur001",
        "name": "Istanbul Park",
        "country": "Turkey",
        "state": "Istanbul",
        "latitude": 40.9517,
        "longitude": 29.4050,
        "length": 5.338,
        "startFinishLatitude": 40.9517,
        "startFinishLongitude": 29.4050,
        "type": "roadCourse",
        "configuration": "Grand Prix Circuit"
      },
      {
        "id": "yas002",
        "name": "Dubai Autodrome",
        "country": "United Arab Emirates",
        "state": "Dubai",
        "latitude": 25.0490,
        "longitude": 55.2388,
        "length": 5.39,
        "startFinishLatitude": 25.0490,
        "startFinishLongitude": 55.2388,
        "type": "roadCourse",
        "configuration": "Grand Prix Circuit"
      },
      {
          "id": "chi001",
          "name": "Shanghai International Circuit",
          "country": "China",
          "state": "Shanghai",
          "latitude": 31.3389,
          "longitude": 121.2208,
          "length": 5.451,
          "startFinishLatitude": 31.3389,
          "startFinishLongitude": 121.2208,
          "type": "roadCourse",
          "configuration": "Grand Prix Circuit"
        }
      ]
